{
  "cached_at": "2025-07-31T18:32:21.202347",
  "data": [
    {
      "region": "수영구",
      "name": "수영구플러스행복센터",
      "contact": "051-754-0380",
      "description": "청년, 1인 가구 지역주민의 소통과 돌봄 공간",
      "address": "부산광역시 수영구 광일로 25(광안동)",
      "hours": "(월~금)09:00~20:00, (토)10:00~17:00  ※ 평일 18시~, 토 : 대관 시 사용 가능",
      "homepage": "http://syplus.or.kr/",
      "sns": "https://www.instagram.com/sycommunity2022",
      "rental_link": "http://syplus.or.kr/bbs/board.php?bo_table=reserv",
      "program_link": ""
    },
    {
      "region": "연제구",
      "name": "연제청년창업나래센터",
      "contact": "051-862-3733",
      "description": "청년의 꿈, 창업의 날개를 달다",
      "address": "부산광역시 연제구 법원남로9번길 17(거제동), 동해선 거제역사 2층",
      "hours": "(월~금) 09:00~19:00, (토) 10:00~17:00",
      "homepage": "https://xn--910btmz0nc6k1uflh22lwvk02ag44a.kr/",
      "sns": " https://www.instagram.com/yeonge_narae",
      "rental_link": "https://xn--910btmz0nc6k1uflh22lwvk02ag44a.kr/business/venue-rental/list",
      "program_link": "https://xn--910btmz0nc6k1uflh22lwvk02ag44a.kr/business/program/list"
    },
    {
      "region": "사하구",
      "name": "청년창업지원센터",
      "contact": "051-201-0191",
      "description": "청년의 창업과 취업을 위한 정보 교류 및 소통 공간",
      "address": "부산광역시 사하구 하신중앙로 324(하단동), 보해이브빌 2차 2층",
      "hours": "(월~금) 09:00~21:00 (주말, 공휴일 휴관)",
      "homepage": "https://www.saha.go.kr/startup/main.do",
      "sns": "https://www.instagram.com/saha_youth_startup/",
      "rental_link": "",
      "program_link": ""
    },
    {
      "region": "해운대구",
      "name": "해운대 청년채움공간",
      "contact": "051-647-0915",
      "description": "청년의 내일을 만들어가는 공간",
      "address": "부산광역시 해운대구 센텀동로 200(재송동)",
      "hours": "월~금 09:00~21:00",
      "homepage": "http://xn--s39awrm7hz2bt67becw33c7xaz19c.kr/index.do",
      "sns": "ttps://www.instagram.com/haeundae_chaeum",
      "rental_link": "http://xn--s39awrm7hz2bt67becw33c7xaz19c.kr/roomSelect.do",
      "program_link": "http://xn--s39awrm7hz2bt67becw33c7xaz19c.kr/programList.do"
    },
    {
      "region": "북구",
      "name": "구포청년센터 감동",
      "contact": "0507-1368-4779",
      "description": "청년스튜디오, 세미나실, 강의실 등 사무실 등 주민 커뮤니티 및 창업 거점 시설",
      "address": "부산광역시 북구 낙동대로 1694번길 4(구포동)",
      "hours": "연중무휴 7:00~23:00",
      "homepage": "https://m.blog.naver.com/PostList.naver?blogId=gamdong4777&tab=1",
      "sns": "",
      "rental_link": "https://map.naver.com/p/entry/place/1902797221?placePath=%252Fhome%253Fentry%253Dplt&searchType=place&lng=128.9964462&lat=35.2058690&c=15.00,0,0,0,dh",
      "program_link": ""
    },
    {
      "region": "북구",
      "name": "청년아트스테이션",
      "contact": "051-309-5172",
      "description": "청년 예술인 발굴, 활동 및 공간(갤러리, 공유, 교육) 지원, 프로그램 운영 등",
      "address": "부산광역시 북구 학사로 135(화명동), 도시철도 화명역 역사 내",
      "hours": "(목~월) 14:00 ~ 21:00  ※ 매주 화, 수, 공휴일 미운영",
      "homepage": "https://groobuk.com/",
      "sns": "https://www.instagram.com/2020artstation",
      "rental_link": "https://groobuk.com/31",
      "program_link": "https://groobuk.com/delivery"
    },
    {
      "region": "남구",
      "name": "동네 청년공간 공간숲",
      "contact": "051-607-3665",
      "description": "지역 청년 누구나 이용 가능하며, 청년들이 관계망을 형성하고 편안하게 쉬어가는 공간입니다.",
      "address": "부산광역시 남구 용소로14번길 10(대연동), 2층",
      "hours": "(평일) 14:00~21:00",
      "homepage": "https://naver.me/5Hko5fQC",
      "sns": "https://www.instagram.com/space_forest24",
      "rental_link": "https://naver.me/5Hko5fQC",
      "program_link": "https://www.instagram.com/space_forest24"
    },
    {
      "region": "부산진구",
      "name": "부산진구 청년마루",
      "contact": "051-893-9155",
      "description": "청년들이 관계망을 형성하고 공동체를 구성할 수 있는 자유 공간",
      "address": "부산광역시 부산진구 백양대로 78번길 15(당감동)",
      "hours": "(월~금) 09:00~21:00  (토) 10:00~16:00",
      "homepage": " https://blog.naver.com/youngwithjingu",
      "sns": "https://www.instagram.com/youngmarujingu",
      "rental_link": "",
      "program_link": "https://www.instagram.com/youngmarujingu"
    },
    {
      "region": "부산진구",
      "name": "와글와글플랫폼",
      "contact": "051-893-0035~6",
      "description": "함께 하는 즐거움이 피어나는, 청년과 지역을 잇는 교류의 장!",
      "address": "부산광역시 부산진구 신천대로 62번길 28(부전동), 지하1층",
      "hours": "(월) 09:00~20:00  (화~금) 09:00~21:00 (주말, 공휴일) 휴관(이용 희망 별도 문의)",
      "homepage": "",
      "sns": "https://www.instagram.com/waffle_jingu/",
      "rental_link": "https://www.instagram.com/waffle_jingu/",
      "program_link": "https://www.instagram.com/waffle_jingu/"
    },
    {
      "region": "부산진구",
      "name": "부산진구청년플랫폼 청년 FLEX",
      "contact": "051-805-6342",
      "description": "핫플 전포역에 위치한 신상 청년시설",
      "address": "부산광역시 부산진구 전포대로 지하 181(전포역)",
      "hours": "(월~금) 11:00~20:00, (토) 11:00~19:00 (2025.5월부터)",
      "homepage": "https://blog.naver.com/youngwithjingu",
      "sns": "https://www.instagram.com/youngwithjingu",
      "rental_link": "https://www.instagram.com/youngwithjingu",
      "program_link": "https://www.instagram.com/youngwithjingu"
    },
    {
      "region": "영도구",
      "name": "청년희망플랫폼 다:이룸",
      "contact": "051-413-4661",
      "description": "청년들의 꿈이 이루어지는 청년활동공간 운영",
      "address": "부산광역시 영도구 번영길 8(봉래동3가), 3층",
      "hours": "연중무휴 24시간 운영",
      "homepage": "",
      "sns": "https://www.instagram.com/youngdo_youngman4661/",
      "rental_link": "",
      "program_link": "https://www.instagram.com/youngdo_youngman4661/"
    },
    {
      "region": "동구",
      "name": "이바구컴퍼니",
      "contact": "051-440-4504",
      "description": "청년간 네트워크 구축 및 문화체험 가능한 오프라인 공간",
      "address": "부산광역시 동구 초량중로 29(초량동), 603호",
      "hours": "(월~금) 09:00~18:00",
      "homepage": "",
      "sns": "",
      "rental_link": "",
      "program_link": ""
    },
    {
      "region": "서구",
      "name": "무튼304",
      "contact": "051-240-6682",
      "description": "서구 문화활동공간 제공",
      "address": "부산광역시 서구 구덕로 304(동대신동2가), 3층",
      "hours": "(월~금) 11:00~20:00, (토) 12:00~18:00, 일요일 미운영",
      "homepage": "https://www.instagram.com/muten_304/",
      "sns": "",
      "rental_link": "",
      "program_link": ""
    },
    {
      "region": "중구",
      "name": "중구 청년센터 청년마루",
      "contact": "051-256-1839",
      "description": "중구청에서 운영하는 중구 청년센터 “청년마루”입니다",
      "address": "부산광역시 중구 법수길 61(보수동1가)",
      "hours": "(화~일) 10:00~21:00 (월요일, 공휴일 휴관)",
      "homepage": "https://www.bsjunggu.go.kr/yeyak/index.junggu?menuCd=DOM_000001002006000000",
      "sns": "https://www.instagram.com/junggu_y0uth",
      "rental_link": "https://www.bsjunggu.go.kr/yeyak/index.junggu?menuCd=DOM_000001002006000000",
      "program_link": ""
    },
    {
      "region": "중구",
      "name": "오름라운지",
      "contact": "051-241-7864",
      "description": "청년 누구나 이용 가능한 열린 공간",
      "address": "부산광역시 중구 중앙대로 지하17(중앙동6가), 광복지하도상가",
      "hours": "(월~금) 09:00~18:00 (주말, 공휴일 휴관)",
      "homepage": "https://blog.naver.com/ylab2021",
      "sns": "https://www.instagram.com/think_n_do ",
      "rental_link": "https://young.busan.go.kr/spPlace/list.nm?menuCd=3",
      "program_link": ""
    },
    {
      "region": "중구",
      "name": "부산청년센터",
      "contact": "051-241-7860",
      "description": "지역거점청년지원센터로 다양한 청년 활동 지원",
      "address": "부산광역시 중구 자갈치해안로 52(남포도5가), 3~4층",
      "hours": "(월~금) 10:00 ~ 22:00 / (토) 10:00 ~ 19:00",
      "homepage": "https://young.busan.go.kr/bycenter/index.nm",
      "sns": "https://www.instagram.com/youthcenterbusan",
      "rental_link": "https://young.busan.go.kr/bycenter/centerPlace/list.nm?menuCd=132",
      "program_link": "https://young.busan.go.kr/bycenter/centerPlace/list.nm?menuCd=135"
    },
    {
      "region": "중구",
      "name": "청년문화교류공간 '청년작당소'",
      "contact": "051-711-2980",
      "description": "청년들이 자유롭게 이용 가능한 문화‧예술체험 및 커뮤니티 공간 운영",
      "address": "부산광역시 중구 광복중앙로 13(신창동1가), BNK아트시네마 3층",
      "hours": "(월~토) 12:00~21:00, 일요일 휴관",
      "homepage": "https://www.jakdangso.kr/",
      "sns": "ttps://www.instagram.com/jakdangso_busan/",
      "rental_link": "https://www.jakdangso.kr/reservation",
      "program_link": "https://www.jakdangso.kr/program"
    },
    {
      "region": "부산진구",
      "name": "청년두드림센터",
      "contact": "051-816-4600",
      "description": "청년일자리 심층상담 및 취업역량강화 프로그램 운영, 소통공간 지원",
      "address": "부산광역시 부산진구 가야대로 772(부전동), 롯데백화점 별관 2층",
      "hours": "(월~금) 10:00 ~ 21:00 / (토) 10:00 ~ 19:00",
      "homepage": "https://busanjob.net/08_wyou/wyou10.asp",
      "sns": "ttps://www.instagram.com/busan_dodream",
      "rental_link": "https://busanjob.net/08_wyou/wyou10_3_2.asp",
      "program_link": "https://busanjob.net/08_wyou/wyou10_5.asp"
    },
    {
      "region": "남구",
      "name": "청년창조발전소  고고씽 Job",
      "contact": "051-607-3666~7",
      "description": "창의적인 청년활동 붐업(Boom-UP)과 청년창업 활성화를 위한 공간",
      "address": "부산광역시 남구 용소로46번길 7(대연동)",
      "hours": "(월~금) 10:00~21:00 (토) 10:00~19:00",
      "homepage": "https://www.bsnamgu.go.kr/namgu_youth/index.do",
      "sns": "https://www.instagram.com/56do_youth/",
      "rental_link": "https://www.bsnamgu.go.kr/index.namgu?menuCd=DOM_000003002002000000",
      "program_link": "https://www.bsnamgu.go.kr/board/list.namgu?boardId=BBS_0000318&menuCd=DOM_000003003001000000&contentsSid=2860&cpath="
    },
    {
      "region": "금정구",
      "name": "청년창조발전소   꿈터+",
      "contact": "051-710-4920~3",
      "description": "청년창업 지원 및 청년활동 프로그램 운영",
      "address": "부산광역시 금정구 금정로 63-1(장전동)",
      "hours": "(월~토) 9:00~20:00 (일) 9:00~18:00",
      "homepage": "http://www.xn--cw0bn74d.kr/main/main.php",
      "sns": "https://www.instagram.com/7104920_dream/",
      "rental_link": "https://map.naver.com/p/entry/place/1996324293?placePath=%2Fticket&c=15.00,0,0,0,dh",
      "program_link": "http://www.xn--cw0bn74d.kr/board/bbs/board.php?bo_table=program"
    },
    {
      "region": "부산진구",
      "name": "청년창조발전소 디자인스프링",
      "contact": "051-893-0944",
      "description": "년 이내 청년창업자 공유오피스 지원, 창업 프로그램 운영 등",
      "address": "부산광역시 부산진구 대학로36번길 10(가야동)",
      "hours": "(월~금) 09:00~18:00",
      "homepage": "https://blog.naver.com/design_spring",
      "sns": "https://www.instagram.com/design_spring_bsj",
      "rental_link": "https://blog.naver.com/design_spring/223401868662",
      "program_link": "https://blog.naver.com/design_spring"
    },
    {
      "region": "사상구",
      "name": "사상인디스테이션",
      "contact": "051-316-7631~5",
      "description": "청년인디공연과 시민참여 문화예술교육 프로그램이 있는 복합문화시설",
      "address": "부산광역시 사상구 사상로 190(괘법동)",
      "hours": "(월~금) 09:00~18:00, (토, 일) 공연 및 행사 진행 시 탄력적 운영",
      "homepage": "https://www.bscf.or.kr/portal/contents.do?mId=0203000000",
      "sns": "https://www.instagram.com/cats_sasang_",
      "rental_link": "",
      "program_link": ""
    },
    {
      "region": "수영구",
      "name": "민락인디트레이닝센터",
      "contact": "051-754-7661~2",
      "description": "청년인디문화 관련 입주단체 트레이닝 공간 및 역량강화 프로그램 운영 등",
      "address": "부산광역시 수영구 769 부산지하철2호선 민락역사 내(민락동)",
      "hours": "(월~금) 10:00~19:00",
      "homepage": "http://www.indiecenter.or.kr/",
      "sns": "https://www.instagram.com/millakindie",
      "rental_link": "",
      "program_link": ""
    },
    {
      "region": "동구",
      "name": "이바구 플랫폼",
      "contact": "051-441-1680",
      "description": "도시재생을 통해 다시 태어난 동구 청년창업 및 활동공간",
      "address": "부산광역시 동구 영초길191번길 일대",
      "hours": "주중 (화~목) 11:00~20:00, 주말 (금~일) 11:00~21:00, 월요일 휴무",
      "homepage": "",
      "sns": "",
      "rental_link": "",
      "program_link": "https://ebagu.imweb.me/Reservation"
    },
    {
      "region": "사상구",
      "name": "사상청년브릿지",
      "contact": "051-310-5252",
      "description": "청년프로그램 운영, 공간 대여",
      "address": "부산 사상구 광장로 19",
      "hours": "(월,화) 09:00~18:00, (수~금) 09:00~22:00, (토) 13:00~17:00",
      "homepage": "https://www.spacecloud.kr/space/70707",
      "sns": "",
      "rental_link": "",
      "program_link": ""
    },
    {
      "region": "해운대구",
      "name": "해운대 청년JOB카페",
      "contact": "051-749-4834",
      "description": "미취업 청년 취업지원을 위한 잡(JOB)카페",
      "address": "부산광역시 해운대구 반여로 120, 해운대기술교육원 1층",
      "hours": "평일 09:00~18:00",
      "homepage": "https://www.haeundae.go.kr/youth/index.do",
      "sns": "",
      "rental_link": "",
      "program_link": "https://www.haeundae.go.kr/youth/index.do"
    },
    {
      "region": "수영구",
      "name": "광안 엑스투지(X to Z) 청년 커뮤니티센터",
      "contact": "051-752-4001",
      "description": "청년의 꿈을 펼쳐라! 청년활동 거점 공간",
      "address": "부산광역시 수영구 수영로 607번길 17",
      "hours": "(월~금)10:00~22:00, (토)10:00 ~ 19:00, ※ 일,공휴일 휴관",
      "homepage": "https://www.suyeong.go.kr/youth/index.suyeong",
      "sns": "https://www.instagram.com/gwangan_xtoz?igsh=MXBoaTh5bzE2Y3Bj",
      "rental_link": "",
      "program_link": ""
    },
    {
      "region": "북구",
      "name": "청년 복합문화 창작공간 SPACE 119",
      "contact": "051-309-4066",
      "description": "청년 예술인 창작 및 활동 공간(창작실, 오픈스튜디오 등)",
      "address": "부산광역시 북구 금곡대로616번길 139(금곡동)",
      "hours": "(월~금) 09:00~18:00",
      "homepage": "",
      "sns": "",
      "rental_link": "",
      "program_link": ""
    },
    {
      "region": "부산진구",
      "name": "청년마음건강센터 청춘소설",
      "contact": "051-710-2661",
      "description": "부산 청년대상으로 마음건강상담 및 프로그램 제공",
      "address": "부산광역시 부산진구 신천대로 62번길 28(부전동) 2층~3층",
      "hours": "(월~금) 09:00~18:00, (화·수·목) 09:00~21:00",
      "homepage": "https://www.youngmind.or.kr/",
      "sns": "https://www.instagram.com/bjmhc2005/",
      "rental_link": "https://www.youngmind.or.kr/community/notice.html",
      "program_link": "https://www.youngmind.or.kr/onlineService/selfExamination.html"
    },
    {
      "region": "부산진구",
      "name": "부산청년잡(JOB) 성장카페",
      "contact": "051-783-5617",
      "description": "초기상담과 맞춤형 프로그램, 기업발굴과 매칭을 통한 기업-청년 일자리 미스매치 해소",
      "address": "부산광역시 부산진구 가야대로 772(부전동), 1층",
      "hours": "(월~금) 09:00~18:00(주말, 공휴일 휴관)",
      "homepage": "https://www.busanjobcafe.kr/counsel/intro",
      "sns": "https://www.instagram.com/jobcafe.busan",
      "rental_link": "",
      "program_link": "https://www.busanjobcafe.kr/edu"
    },
    {
      "region": "동래구",
      "name": "동래구 청년어울림센터",
      "contact": "051-997-5003",
      "description": "꿈꾸는 청년들을 위한 성장지원 네트워크",
      "address": "부산광역시 동래구 금강로129(온천동), 혁신어울림센터 5층",
      "hours": "(화~일) 09:00~20:00",
      "homepage": "https://동래구청년어울림센터.kr",
      "sns": "https://www.instagram.com/dongnae.youth.2024",
      "rental_link": "https://xn--2e0by6evucvyfm6cfzq0shp6bcyxf4k.kr/roomSelect.do",
      "program_link": "https://www.xn--2e0by6evucvyfm6cfzq0shp6bcyxf4k.kr/programList.do"
    },
    {
      "region": "사하구",
      "name": "사하청년공간 청신호",
      "contact": "051-271-0191",
      "description": "청년들의 더 나은 미래의 청신호를 밝혀주는 문화 놀이터",
      "address": "부산광역시 사하구 낙동대로 413(하단동), 롯데캐슬 2층",
      "hours": "(월~금) 12:00~21:00, (토) 09:00~17:00  (공휴일 휴관)",
      "homepage": "https://www.saha.go.kr/startup/main.do",
      "sns": "https://www.instagram.com/saha_youth_startup/",
      "rental_link": "https://www.saha.go.kr/startup/",
      "program_link": ""
    }
  ]
}